{
  "users": [
    {
      "id": 6,
    "name": "Dennis Schulist",
    "last name": "Corkery",
    "email address": "Karley_Dach@jasper.info",
      "gender": "female",
     
    "address": {
      "street": "Norberto Crossing",
      "suite": "Apt. 950",
      "city": "South Christy",
      "zipcode": "23505-1337",
      "geo": {
        "lat": "-71.4197",
        "lng": "71.7478"
      }
    },
    "phone": "1-477-935-8478 x6430",
    "website": "ola.org",
    "company": {
      "name": "Considine-Lockman",
      "catchPhrase": "Synchronised bottom-line interface",
      "bs": "e-enable innovative applications"
    }
    },
    {
      "id": 7,
    "name": "Kurtis Weissnat",
    "last name": "Elwyn.Skiles",
    "email address": "Telly.Hoeger@billy.biz",
    "address": {
      "street": "Rex Trail",
      "suite": "Suite 280",
      "city": "Howemouth",
      "zipcode": "58804-1099",
      "geo": {
        "lat": "24.8918",
        "lng": "21.8984"
      }
    },
    "phone": "210.067.6132",
    "website": "elvis.io",
    "company": {
      "name": "Johns Group",
      "catchPhrase": "Configurable multimedia task-force",
      "bs": "generate enterprise e-tailers"
    }
    },
    {
      "id": 8,
    "name": "Nicholas Runolfsdottir V",
    "last name": "Maxime_Nienow",
    "email address": "Sherwood@rosamond.me",
    "address": {
      "street": "Ellsworth Summit",
      "suite": "Suite 729",
      "city": "Aliyaview",
      "zipcode": "45169",
      "geo": {
        "lat": "-14.3990",
        "lng": "-120.7677"
      }
    },
    "phone": "586.493.6943 x140",
    "website": "jacynthe.com",
    "company": {
      "name": "Abernathy Group",
      "catchPhrase": "Implemented secondary concept",
      "bs": "e-enable extensible e-tailers"
    }
    },
  ],
  "comments": [
    {
      "id": 1,
      "Description": "some comment",
      "postId": 1
    },
    {
      "id": 2,
      "description": "some comment",
      "postId": 1
    }
  ],
  "profile": {
    "name": "typicode"
  }
}
